    {
      "type": "Feature",
      "properties": {
        "@id": "relation/6620184",
        "access": "yes",
        "castle_type": "fortress",
        "historic": "castle",
        "historic:civilization": "medieval",
        "landuse": "meadow",
        "name": "Маркови Кули",
        "name:en": "Marko's Towers",
        "name:mk": "Маркови Кули",
        "ruins": "wall",
        "tourism": "attraction",
        "type": "multipolygon",
        "wikidata": "Q1283784",
        "wikipedia": "en:Markovi Kuli",
        "@geometry": "center"
      },
      "geometry": {
        "type": "Point",
        "coordinates": [
          21.5385014,
          41.361658
        ]
      },
      "id": "relation/6620184"
    },
    {
      "type": "Feature",
      "properties": {
        "@id": "relation/15078753",
        "archaeological_site": "settlement",
        "historic": "archaeological_site",
        "historic:civilization": "prehistoric",
        "name": "Куќата на Мантови",
        "name:en": "House of Mantov",
        "name:mk": "Куќата на Мантови",
        "type": "multipolygon",
        "wikidata": "Q98356997",
        "wikipedia": "mk:Куќата на Мантови (Варош)",
        "@geometry": "center"
      },
      "geometry": {
        "type": "Point",
        "coordinates": [
          21.5404478,
          41.3553603
        ]
      },
      "id": "relation/15078753"
    },
    {
      "type": "Feature",
      "properties": {
        "@id": "way/32463336",
        "historic": "archaeological_site",
        "historic:civilization": "ancient_roman",
        "historic:period": "principate",
        "int_name": "Skupi",
        "name": "Скупи",
        "name:en": "Scupi",
        "tourism": "attraction",
        "wikidata": "Q149203",
        "wikimedia_commons": "Category:Scupi",
        "wikipedia": "mk:Скупи",
        "@geometry": "center"
      },
      "geometry": {
        "type": "Point",
        "coordinates": [
          21.3925592,
          42.0165648
        ]
      },
      "id": "way/32463336"
    },
    {
      "type": "Feature",
      "properties": {
        "@id": "way/32885596",
        "historic": "monument",
        "int_name": "Francuski Grobišta",
        "landuse": "cemetery",
        "name": "Француски гробишта",
        "name:en": "French Cemetery",
        "name:pl": "Cmentarz francuski",
        "@geometry": "center"
      },
      "geometry": {
        "type": "Point",
        "coordinates": [
          21.4298358,
          42.008356
        ]
      },
      "id": "way/32885596"
    },
    {
      "type": "Feature",
      "properties": {
        "@id": "way/33100249",
        "historic": "castle",
        "int_name": "Tetovsko Kale",
        "name": "Тетовско Кале",
        "name:en": "Tetovo Fortress",
        "@geometry": "center"
      },
      "geometry": {
        "type": "Point",
        "coordinates": [
          20.960082,
          42.0193826
        ]
      },
      "id": "way/33100249"
    },
    {
      "type": "Feature",
      "properties": {
        "@id": "way/34093752",
        "castle_type": "fortress",
        "historic": "castle",
        "int_name": "Samuilova tvrdina",
        "name": "Самуилова тврдина",
        "name:en": "Samuil's Fortress",
        "name:pl": "Twierdza Samuela",
        "tourism": "attraction",
        "wheelchair": "no",
        "wikidata": "Q1283801",
        "wikipedia": "mk:Самуилова тврдина",
        "@geometry": "center"
      },
      "geometry": {
        "type": "Point",
        "coordinates": [
          20.7910567,
          41.1152832
        ]
      },
      "id": "way/34093752"
    },
    {
      "type": "Feature",
      "properties": {
        "@id": "way/34093853",
        "amenity": "theatre",
        "historic": "archaeological_site",
        "int_name": "Antički Teatar",
        "name": "Антички театар",
        "name:en": "Ancient Theatre",
        "name:fr": "Théatre antique",
        "name:lt": "Antikinis Teatras",
        "name:pl": "Teatr Antyczny",
        "name:tr": "Antik Tiyatro",
        "tourism": "attraction",
        "wheelchair": "no",
        "wikidata": "Q3180446",
        "wikipedia": "mk:Антички театар (Охрид)",
        "@geometry": "center"
      },
      "geometry": {
        "type": "Point",
        "coordinates": [
          20.7938144,
          41.1146399
        ]
      },
      "id": "way/34093853"
    },
    {
      "type": "Feature",
      "properties": {
        "@id": "way/34094279",
        "archaeological_site": "city",
        "historic": "archaeological_site",
        "int_name": "Plaošnik",
        "name": "Плаошник",
        "name:en": "Plaoshnik",
        "name:fr": "Site dit « Lieu plat sur la colline » (Plaoshnik)",
        "ruins": "wall",
        "tourism": "attraction",
        "wikidata": "Q7201685",
        "wikipedia": "mk:Плаошник",
        "@geometry": "center"
      },
      "geometry": {
        "type": "Point",
        "coordinates": [
          20.7908576,
          41.1128239
        ]
      },
      "id": "way/34094279"
    },
    {
      "type": "Feature",
      "properties": {
        "@id": "way/34321902",
        "barrier": "wall",
        "building:material": "stone",
        "castle_type": "defensive",
        "historic": "castle",
        "@geometry": "center"
      },
      "geometry": {
        "type": "Point",
        "coordinates": [
          21.4335558,
          42.0001588
        ]
      },
      "id": "way/34321902"
    },
    {
      "type": "Feature",
      "properties": {
        "@id": "way/37748507",
        "addr:city": "Битола",
        "addr:postcode": "7000",
        "amenity": "clock",
        "building": "yes",
        "historic": "tower",
        "int_name": "Saat Kula",
        "man_made": "tower",
        "name": "Саат Кула",
        "name:en": "Clock Tower",
        "name:pl": "Wieża zegarowa",
        "tourism": "attraction",
        "tower:type": "bell_tower",
        "wikipedia": "mk:Саат-кула_(Битола)",
        "@geometry": "center"
      },
      "geometry": {
        "type": "Point",
        "coordinates": [
          21.3338976,
          41.0308805
        ]
      },
      "id": "way/37748507"
    },
    {
      "type": "Feature",
      "properties": {
        "@id": "way/37956139",
        "historic": "archaeological_site",
        "int_name": "Heraklea Linkestis",
        "name": "Хераклеа Линкестис",
        "name:en": "Heraclea Lyncestis",
        "name:fr": "Heraclea Lyncestis",
        "ruins": "yes",
        "tourism": "attraction",
        "wikidata": "Q1142395",
        "@geometry": "center"
      },
      "geometry": {
        "type": "Point",
        "coordinates": [
          21.3423417,
          41.011111
        ]
      },
      "id": "way/37956139"
    },
    {
      "type": "Feature",
      "properties": {
        "@id": "way/159068224",
        "building": "yes",
        "historic": "monument",
        "int_name": "Spomenik Kosturnica",
        "name": "Споменик Костурница",
        "@geometry": "center"
      },
      "geometry": {
        "type": "Point",
        "coordinates": [
          21.7226462,
          42.1453963
        ]
      },
      "id": "way/159068224"
    },
    {
      "type": "Feature",
      "properties": {
        "@id": "way/167788891",
        "historic": "battlefield",
        "@geometry": "center"
      },
      "geometry": {
        "type": "Point",
        "coordinates": [
          22.7529527,
          41.3867527
        ]
      },
      "id": "way/167788891"
    },
    {
      "type": "Feature",
      "properties": {
        "@id": "way/172158102",
        "barrier": "wall",
        "building:material": "stone",
        "castle_type": "defensive",
        "historic": "castle",
        "wikidata": "Q1262367",
        "@geometry": "center"
      },
      "geometry": {
        "type": "Point",
        "coordinates": [
          21.4334488,
          42.0010218
        ]
      },
      "id": "way/172158102"
    },
    {
      "type": "Feature",
      "properties": {
        "@id": "way/172186249",
        "addr:city": "Cкoпje",
        "addr:city:en": "Skopje",
        "addr:country": "MK",
        "addr:housenumber": "2",
        "addr:postcode": "1000",
        "addr:street": "Самоилова",
        "addr:street:en": "Samoilova",
        "building": "public",
        "email": "info@holocaustfund.org.mk",
        "fax": "+389 2 3232310",
        "historic": "memorial",
        "int_name": "Memorijalen centar na holokaustot na Evreite na Makedonija",
        "name": "Меморијален центар на холокаустот на Евреите од Македонија",
        "name:en": "Holocaust Memorial Center for the Jews of Macedonia",
        "name:tr": "Holocaust Memorial Center for the Jews of Macedonia",
        "name:zh": "犹太人大屠杀纪念中心",
        "phone": "+389 2 3122697",
        "tourism": "museum",
        "website": "https://www.holocaustfund.org/",
        "wikidata": "Q3333150",
        "wikimedia_commons": "Category:Holocaust Memorial Center for the Jews of Macedonia",
        "wikipedia": "en:Holocaust Memorial Center for the Jews of Macedonia",
        "@geometry": "center"
      },
      "geometry": {
        "type": "Point",
        "coordinates": [
          21.4333832,
          41.9984656
        ]
      },
      "id": "way/172186249"
    },
    {
      "type": "Feature",
      "properties": {
        "@id": "way/177144178",
        "barrier": "wall",
        "historic": "citywalls",
        "@geometry": "center"
      },
      "geometry": {
        "type": "Point",
        "coordinates": [
          21.9756321,
          41.5507844
        ]
      },
      "id": "way/177144178"
    },
    {
      "type": "Feature",
      "properties": {
        "@id": "way/177144179",
        "barrier": "wall",
        "historic": "citywalls",
        "@geometry": "center"
      },
      "geometry": {
        "type": "Point",
        "coordinates": [
          21.973821,
          41.5511222
        ]
      },
      "id": "way/177144179"
    },
    {
      "type": "Feature",
      "properties": {
        "@id": "way/177695165",
        "building": "yes",
        "building:material": "stone",
        "historic": "yes",
        "man_made": "tower",
        "tower:type": "defensive",
        "@geometry": "center"
      },
      "geometry": {
        "type": "Point",
        "coordinates": [
          21.4350546,
          42.0000797
        ]
      },
      "id": "way/177695165"
    },
    {
      "type": "Feature",
      "properties": {
        "@id": "way/177695166",
        "barrier": "wall",
        "building:material": "stone",
        "castle_type": "defensive",
        "historic": "castle",
        "@geometry": "center"
      },
      "geometry": {
        "type": "Point",
        "coordinates": [
          21.4336316,
          41.999871
        ]
      },
      "id": "way/177695166"
    },
    {
      "type": "Feature",
      "properties": {
        "@id": "way/177695168",
        "building": "yes",
        "building:material": "stone",
        "historic": "yes",
        "man_made": "tower",
        "tower:type": "defensive",
        "@geometry": "center"
      },
      "geometry": {
        "type": "Point",
        "coordinates": [
          21.4348423,
          42.0000838
        ]
      },
      "id": "way/177695168"
    },
    {
      "type": "Feature",
      "properties": {
        "@id": "way/179291828",
        "alt_name": "Свети Наум",
        "alt_name:cs": "klášter Svatý Naum",
        "amenity": "place_of_worship",
        "building": "yes",
        "denomination": "macedonian_orthodox",
        "historic": "church",
        "int_name": "Manastir Sveti Naum",
        "name": "Манастир „Свети Наум“",
        "name:cs": "klášter svatého Nauma",
        "name:de": "Kloster Sveti Naum",
        "name:en": "Monastery of Saint Naum",
        "name:fr": "Monastère Saint-Naum",
        "name:mk": "Манастир „Свети Наум“",
        "name:pl": "Monastyr Św. Nauma",
        "name:sq": "Manastiri i Shën Naumit",
        "name:tr": "Aziz Naum Manastırı",
        "religion": "christian",
        "tourism": "attraction",
        "wikidata": "Q164216",
        "wikipedia": "en:Monastery of Saint Naum",
        "@geometry": "center"
      },
      "geometry": {
        "type": "Point",
        "coordinates": [
          20.7406423,
          40.9139505
        ]
      },
      "id": "way/179291828"
    },
    {
      "type": "Feature",
      "properties": {
        "@id": "way/180360206",
        "bridge": "aqueduct",
        "historic": "aqueduct",
        "historic:civilization": "byzantine",
        "int_name": "Akvadukt Skopje",
        "layer": "1",
        "name": "Аквадукт Скопје",
        "name:en": "Skopje Aqueduct",
        "name:pl": "Akwedukt w Skopje",
        "tourism": "attraction",
        "wall": "dry_stone",
        "wikidata": "Q862032",
        "wikimedia_commons": "Category:Skopje Aqueduct",
        "wikipedia": "en:Skopje Aqueduct",
        "@geometry": "center"
      },
      "geometry": {
        "type": "Point",
        "coordinates": [
          21.419311,
          42.022259
        ]
      },
      "id": "way/180360206"
    },
    {
      "type": "Feature",
      "properties": {
        "@id": "way/181727867",
        "alt_name": "Осоговски Манастир",
        "alt_name:en": "Osogovski Manastir",
        "amenity": "monastery",
        "denomination": "orthodox",
        "historic": "monastery",
        "int_name": "Manastir Sv. Joakim Osogovski",
        "name": "Манастир Св. Јоаким Осоговски",
        "name:en": "Monastery of St. Joakim Osogovski",
        "name:mk": "Манастир Св. Јоаким Осоговски",
        "religion": "christian",
        "tourism": "attraction",
        "wikidata": "Q1283734",
        "@geometry": "center"
      },
      "geometry": {
        "type": "Point",
        "coordinates": [
          22.3623436,
          42.208794
        ]
      },
      "id": "way/181727867"
    },
    {
      "type": "Feature",
      "properties": {
        "@id": "way/181986735",
        "alt_name": "Манастир „Св. Архангел Михаил“",
        "alt_name:en": "Saint Michael's Monastery",
        "amenity": "monastery",
        "building": "yes",
        "denomination": "orthodox",
        "historic": "yes",
        "int_name": "Lesnovski Manastir",
        "is_in": "Лесново",
        "name": "Лесновски манастир",
        "name:en": "Lesnovo Monastery",
        "religion": "christian",
        "tourism": "attraction",
        "wikipedia": "mk:Лесновски манастир",
        "@geometry": "center"
      },
      "geometry": {
        "type": "Point",
        "coordinates": [
          22.2284115,
          42.0132986
        ]
      },
      "id": "way/181986735"
    },
    {
      "type": "Feature",
      "properties": {
        "@id": "way/182927657",
        "amenity": "place_of_worship",
        "denomination": "orthodox",
        "historic": "yes",
        "int_name": "Manastir Sv. Bogorodica",
        "leisure": "garden",
        "name": "Манастир Св. Богородица",
        "name:en": "St. Holy Mother of God Monastery",
        "place_of_worship:type": "monastery",
        "religion": "christian",
        "tourism": "attraction",
        "@geometry": "center"
      },
      "geometry": {
        "type": "Point",
        "coordinates": [
          21.4283099,
          42.1255318
        ]
      },
      "id": "way/182927657"
    },
    {
      "type": "Feature",
      "properties": {
        "@id": "way/182933841",
        "amenity": "place_of_worship",
        "denomination": "orthodox",
        "fenced": "yes",
        "historic": "yes",
        "int_name": "Manastir Sv. Nikola",
        "name": "Манастир Св. Никола",
        "name:en": "Saint Nicholas Monastery",
        "religion": "christian",
        "tourism": "attraction",
        "@geometry": "center"
      },
      "geometry": {
        "type": "Point",
        "coordinates": [
          21.4695998,
          42.1097792
        ]
      },
      "id": "way/182933841"
    },
    {
      "type": "Feature",
      "properties": {
        "@id": "way/184307286",
        "access": "yes",
        "building": "yes",
        "historic": "tower",
        "int_name": "Srednovekovna Kula",
        "man_made": "tower",
        "name": "Средновековна Кула",
        "name:en": "Medieval Tower",
        "tower:type": "defensive",
        "@geometry": "center"
      },
      "geometry": {
        "type": "Point",
        "coordinates": [
          22.4090664,
          41.921549
        ]
      },
      "id": "way/184307286"
    },
    {
      "type": "Feature",
      "properties": {
        "@id": "way/184313963",
        "access": "no",
        "building": "yes",
        "historic": "tower",
        "int_name": "Srednovekovna Kula",
        "man_made": "tower",
        "name": "Средновековна Кула",
        "name:en": "Medieval Tower",
        "tower:type": "defensive",
        "wikidata": "Q122459539",
        "@geometry": "center"
      },
      "geometry": {
        "type": "Point",
        "coordinates": [
          22.4120811,
          41.9234042
        ]
      },
      "id": "way/184313963"
    },
    {
      "type": "Feature",
      "properties": {
        "@id": "way/189909367",
        "historic": "ruins",
        "int_name": "Bargala",
        "name": "Баргала",
        "name:en": "Bargala",
        "tourism": "attraction",
        "wikipedia": "mk:Баргала",
        "@geometry": "center"
      },
      "geometry": {
        "type": "Point",
        "coordinates": [
          22.2905474,
          41.7990258
        ]
      },
      "id": "way/189909367"
    },
    {
      "type": "Feature",
      "properties": {
        "@id": "way/192121734",
        "addr:city": "Битола",
        "addr:street": "Цане Василев",
        "amenity": "place_of_worship",
        "building": "mosque",
        "historic": "yes",
        "name": "Џамија Ајдар Кади",
        "name:pl": "Meczet Ajdar Kadi",
        "religion": "muslim",
        "tourism": "attraction",
        "wikipedia": "mk:Ајдар-кади_џамија",
        "@geometry": "center"
      },
      "geometry": {
        "type": "Point",
        "coordinates": [
          21.3384693,
          41.0349717
        ]
      },
      "id": "way/192121734"
    },
    {
      "type": "Feature",
      "properties": {
        "@id": "way/192125506",
        "alt_name:mk": "Кичевско кале",
        "building": "yes",
        "historic": "monument",
        "name": "Китино Кале",
        "name:en": "Kita Castle",
        "name:mk": "Китино Кале",
        "name:sq": "Kalaja e Kërçovës",
        "tourism": "attraction",
        "@geometry": "center"
      },
      "geometry": {
        "type": "Point",
        "coordinates": [
          20.9663948,
          41.5129735
        ]
      },
      "id": "way/192125506"
    },
    {
      "type": "Feature",
      "properties": {
        "@id": "way/194459368",
        "barrier": "city_wall",
        "historic": "citywalls",
        "@geometry": "center"
      },
      "geometry": {
        "type": "Point",
        "coordinates": [
          20.7904652,
          41.1149442
        ]
      },
      "id": "way/194459368"
    },
    {
      "type": "Feature",
      "properties": {
        "@id": "way/194459369",
        "barrier": "city_wall",
        "historic": "citywalls",
        "@geometry": "center"
      },
      "geometry": {
        "type": "Point",
        "coordinates": [
          20.7910352,
          41.1154957
        ]
      },
      "id": "way/194459369"
    },
    {
      "type": "Feature",
      "properties": {
        "@id": "way/194459408",
        "barrier": "city_wall",
        "historic": "citywalls",
        "@geometry": "center"
      },
      "geometry": {
        "type": "Point",
        "coordinates": [
          20.7909627,
          41.1151957
        ]
      },
      "id": "way/194459408"
    },
    {
      "type": "Feature",
      "properties": {
        "@id": "way/194640359",
        "barrier": "city_wall",
        "historic": "castle",
        "@geometry": "center"
      },
      "geometry": {
        "type": "Point",
        "coordinates": [
          20.7973203,
          40.9965933
        ]
      },
      "id": "way/194640359"
    },
    {
      "type": "Feature",
      "properties": {
        "@id": "way/199052359",
        "historic": "archaeological_site",
        "name": "Стара базилика",
        "name:en": "Old Basilica",
        "@geometry": "center"
      },
      "geometry": {
        "type": "Point",
        "coordinates": [
          20.9887439,
          40.8670435
        ]
      },
      "id": "way/199052359"
    },
    {
      "type": "Feature",
      "properties": {
        "@id": "way/199052629",
        "historic": "archaeological_site",
        "name": "Римска цистерна",
        "name:en": "Roman Cistern",
        "@geometry": "center"
      },
      "geometry": {
        "type": "Point",
        "coordinates": [
          20.9904397,
          40.8681483
        ]
      },
      "id": "way/199052629"
    },
    {
      "type": "Feature",
      "properties": {
        "@id": "way/199056987",
        "historic": "archaeological_site",
        "name": "Старохристијанска базилика",
        "@geometry": "center"
      },
      "geometry": {
        "type": "Point",
        "coordinates": [
          20.9907631,
          40.868899
        ]
      },
      "id": "way/199056987"
    },
    {
      "type": "Feature",
      "properties": {
        "@id": "way/199056988",
        "historic": "archaeological_site",
        "name": "Римска Куќа",
        "@geometry": "center"
      },
      "geometry": {
        "type": "Point",
        "coordinates": [
          20.9909227,
          40.8685852
        ]
      },
      "id": "way/199056988"
    },
    {
      "type": "Feature",
      "properties": {
        "@id": "way/199056990",
        "historic": "archaeological_site",
        "name": "Римска куќа",
        "@geometry": "center"
      },
      "geometry": {
        "type": "Point",
        "coordinates": [
          20.990465,
          40.8692875
        ]
      },
      "id": "way/199056990"
    },
    {
      "type": "Feature",
      "properties": {
        "@id": "way/199056991",
        "historic": "archaeological_site",
        "name": "Ранохристијанска базилика",
        "@geometry": "center"
      },
      "geometry": {
        "type": "Point",
        "coordinates": [
          20.9910802,
          40.8692252
        ]
      },
      "id": "way/199056991"
    },
    {
      "type": "Feature",
      "properties": {
        "@id": "way/209092691",
        "email": "contact@stobi.mk",
        "facebook": "https://www.facebook.com/Stobaeus/",
        "historic": "archaeological_site",
        "historic:civilization": "ancient_roman;macedonian",
        "int_name": "Stobi",
        "name": "Стоби",
        "name:en": "Stobi",
        "name:pl": "Stobi",
        "opening_hours": "Mo-Sa 08:00-16:00",
        "phone": "+389 75 210 752",
        "tourism": "attraction",
        "website": "http://www.stobi.mk",
        "wikidata": "Q1371168",
        "wikipedia": "mk:Стоби",
        "@geometry": "center"
      },
      "geometry": {
        "type": "Point",
        "coordinates": [
          21.9734409,
          41.5520256
        ]
      },
      "id": "way/209092691"
    },
    {
      "type": "Feature",
      "properties": {
        "@id": "way/212703196",
        "archaeological_site": "fortification",
        "fortification_type": "hill_fort",
        "historic": "archaeological_site",
        "int_name": "Carevi Kuli",
        "name": "Цареви Кули",
        "name:en": "Czar’s Towers",
        "tourism": "attraction",
        "@geometry": "center"
      },
      "geometry": {
        "type": "Point",
        "coordinates": [
          22.6300225,
          41.4324514
        ]
      },
      "id": "way/212703196"
    },
    {
      "type": "Feature",
      "properties": {
        "@id": "way/217563724",
        "building": "yes",
        "historic": "memorial",
        "name": "Спомен куќа Тоше Проески",
        "@geometry": "center"
      },
      "geometry": {
        "type": "Point",
        "coordinates": [
          21.2462721,
          41.3744382
        ]
      },
      "id": "way/217563724"
    },
    {
      "type": "Feature",
      "properties": {
        "@id": "way/217568679",
        "artist_name": "Jovan Grabulovski;Iskra Grabuloska",
        "building": "yes",
        "historic": "monument",
        "image": "https://upload.wikimedia.org/wikipedia/commons/f/fe/%D0%9C%D0%B0%D0%BA%D0%B5%D0%B4%D0%BE%D0%BD%D0%B8%D1%83%D0%BC_-_%D0%9A%D1%80%D1%83%D1%88%D0%B5%D0%B2%D0%BE.jpg",
        "name": "Македониум",
        "tourism": "museum",
        "wikidata": "Q2717956",
        "@geometry": "center"
      },
      "geometry": {
        "type": "Point",
        "coordinates": [
          21.2483714,
          41.377408
        ]
      },
      "id": "way/217568679"
    },
    {
      "type": "Feature",
      "properties": {
        "@id": "way/217836998",
        "barrier": "wire_fence",
        "historic": "ruins",
        "name": "Базилика \"Свети Еразмо\"",
        "@geometry": "center"
      },
      "geometry": {
        "type": "Point",
        "coordinates": [
          20.7630671,
          41.1406241
        ]
      },
      "id": "way/217836998"
    },
    {
      "type": "Feature",
      "properties": {
        "@id": "way/217849357",
        "building": "yes",
        "historic": "monastery",
        "name": "Манастир „Свети Наум",
        "name:cs": "Klášter sv. Nauma",
        "name:en": "The Monastery of Saint Naum",
        "name:sq": "Manastiri i Shën Naumit",
        "@geometry": "center"
      },
      "geometry": {
        "type": "Point",
        "coordinates": [
          20.7406601,
          40.9138479
        ]
      },
      "id": "way/217849357"
    },
    {
      "type": "Feature",
      "properties": {
        "@id": "way/222153861",
        "historic": "archaeological_site",
        "@geometry": "center"
      },
      "geometry": {
        "type": "Point",
        "coordinates": [
          21.3144026,
          41.0432859
        ]
      },
      "id": "way/222153861"
    },
    {
      "type": "Feature",
      "properties": {
        "@id": "way/223008200",
        "historic": "archaeological_site",
        "name": "Кале",
        "@geometry": "center"
      },
      "geometry": {
        "type": "Point",
        "coordinates": [
          21.3147229,
          41.2582098
        ]
      },
      "id": "way/223008200"
    },
    {
      "type": "Feature",
      "properties": {
        "@id": "way/226160304",
        "building": "yes",
        "historic": "ruins",
        "int_name": "Roman Theater of Heraclea Lyncestis",
        "name": "Roman Theater of Heraclea Lyncestis",
        "name:en": "Roman Theater of Heraclea Lyncestis",
        "name:fr": "Théatre romain de Heraclea Lyncestis",
        "wikipedia": "en:Heraclea Lyncestis",
        "@geometry": "center"
      },
      "geometry": {
        "type": "Point",
        "coordinates": [
          21.3421911,
          41.0114425
        ]
      },
      "id": "way/226160304"
    },
    {
      "type": "Feature",
      "properties": {
        "@id": "way/226161294",
        "historic": "ruins",
        "historic:civilization": "ancient_roman",
        "name": "Антички театар",
        "name:en": "ancient theater of Stobi",
        "@geometry": "center"
      },
      "geometry": {
        "type": "Point",
        "coordinates": [
          21.974682,
          41.5514392
        ]
      },
      "id": "way/226161294"
    },
    {
      "type": "Feature",
      "properties": {
        "@id": "way/227215121",
        "building": "yes",
        "historic": "ruins",
        "@geometry": "center"
      },
      "geometry": {
        "type": "Point",
        "coordinates": [
          20.9650662,
          41.513675
        ]
      },
      "id": "way/227215121"
    },
    {
      "type": "Feature",
      "properties": {
        "@id": "way/227433408",
        "historic": "archaeological_site",
        "int_name": "Vardarski Rid",
        "name": "Вардарски Рид",
        "name:en": "Vardar Hill",
        "tourism": "attraction",
        "wikipedia": "mk:Вардарски рид",
        "@geometry": "center"
      },
      "geometry": {
        "type": "Point",
        "coordinates": [
          22.5217936,
          41.1485732
        ]
      },
      "id": "way/227433408"
    },
    {
      "type": "Feature",
      "properties": {
        "@id": "way/229632394",
        "area": "yes",
        "historic": "archaeological_site",
        "name": "Isar-Marvinci",
        "website": "https://vici.org/vici/Idomenia",
        "wikipedia": "en:Idomenae",
        "@geometry": "center"
      },
      "geometry": {
        "type": "Point",
        "coordinates": [
          22.4937195,
          41.2774735
        ]
      },
      "id": "way/229632394"
    },
    {
      "type": "Feature",
      "properties": {
        "@id": "way/231344771",
        "historic": "archaeological_site",
        "historic:civilization": "neolithic",
        "int_name": "Tumba Madžari",
        "name": "Тумба Маџари",
        "name:en": "Tumba Madzhari",
        "tourism": "attraction",
        "wikidata": "Q3408436",
        "wikimedia_commons": "Category:Tumba Madžari",
        "wikipedia": "mk:Тумба (Маџари)",
        "@geometry": "center"
      },
      "geometry": {
        "type": "Point",
        "coordinates": [
          21.5054395,
          42.0014931
        ]
      },
      "id": "way/231344771"
    },
    {
      "type": "Feature",
      "properties": {
        "@id": "way/232843018",
        "historic": "castle",
        "name": "Маркови Кули",
        "name:en": "Markovi Kuli",
        "ruins": "yes",
        "tourism": "attraction",
        "@geometry": "center"
      },
      "geometry": {
        "type": "Point",
        "coordinates": [
          21.6992927,
          41.838076
        ]
      },
      "id": "way/232843018"
    },
    {
      "type": "Feature",
      "properties": {
        "@id": "way/239422349",
        "addr:city": "Cкoпje",
        "addr:city:en": "Skopje",
        "addr:country": "MK",
        "addr:housenumber": "4А",
        "addr:postcode": "1000",
        "addr:street": "11 Октомври",
        "building": "yes",
        "email": "PortaMK@mmb.org.mk",
        "historic": "monument",
        "int_name": "Porta Makedonija",
        "name": "Порта Македонија",
        "name:en": "Porta Macedonia",
        "name:lt": "Triumfo arka",
        "name:tr": "Porta Macedonia",
        "phone": "+389 2 3151141",
        "wikidata": "Q3078453",
        "wikimedia_commons": "Category:Porta Makedonija",
        "wikipedia": "en:Porta Macedonia",
        "@geometry": "center"
      },
      "geometry": {
        "type": "Point",
        "coordinates": [
          21.4324253,
          41.9944541
        ]
      },
      "id": "way/239422349"
    },
    {
      "type": "Feature",
      "properties": {
        "@id": "way/240346454",
        "historic": "archaeological_site",
        "name": "Градиште",
        "name:en": "Gradishte",
        "@geometry": "center"
      },
      "geometry": {
        "type": "Point",
        "coordinates": [
          21.2184749,
          41.2409433
        ]
      },
      "id": "way/240346454"
    },
    {
      "type": "Feature",
      "properties": {
        "@id": "way/240622723",
        "historic": "archaeological_site",
        "name": "Стибера",
        "@geometry": "center"
      },
      "geometry": {
        "type": "Point",
        "coordinates": [
          21.3985818,
          41.2441604
        ]
      },
      "id": "way/240622723"
    },
    {
      "type": "Feature",
      "properties": {
        "@id": "way/241085465",
        "addr:city": "Tetovo",
        "addr:postcode": "1220",
        "addr:street": "Браќа Миладинови",
        "amenity": "place_of_worship",
        "building": "mosque",
        "denomination": "sunni",
        "historic": "yes",
        "name": "Шарена Џамија",
        "name:en": "Pasha's Mosque",
        "name:pl": "Kolorowy meczet",
        "name:sq": "Xhamia e Pashës (Xh. e Larme)",
        "opening_hours": "24/7",
        "religion": "muslim",
        "tourism": "attraction",
        "wheelchair": "limited",
        "wikidata": "Q1009896",
        "wikipedia": "pl:Kolorowy_Meczet_(Tetowo)",
        "@geometry": "center"
      },
      "geometry": {
        "type": "Point",
        "coordinates": [
          20.9667591,
          42.0057279
        ]
      },
      "id": "way/241085465"
    },
    {
      "type": "Feature",
      "properties": {
        "@id": "way/242582497",
        "barrier": "city_wall",
        "historic": "ruins",
        "@geometry": "center"
      },
      "geometry": {
        "type": "Point",
        "coordinates": [
          20.6324592,
          41.0998824
        ]
      },
      "id": "way/242582497"
    },
    {
      "type": "Feature",
      "properties": {
        "@id": "way/243981081",
        "historic": "archaeological_site",
        "name": "Стибера",
        "name:en": "Stibera",
        "wikidata": "Q12910730",
        "wikipedia": "en:Stymbara (Macedonia)",
        "@geometry": "center"
      },
      "geometry": {
        "type": "Point",
        "coordinates": [
          21.3975268,
          41.243788
        ]
      },
      "id": "way/243981081"
    },
    {
      "type": "Feature",
      "properties": {
        "@id": "way/295526114",
        "addr:city": "skopje",
        "historic": "yes",
        "int_name": "Bezisten",
        "name": "Безистен",
        "note": "Bezisten is the core of Skopje's Old Bazaar",
        "@geometry": "center"
      },
      "geometry": {
        "type": "Point",
        "coordinates": [
          21.4370402,
          42.0014413
        ]
      },
      "id": "way/295526114"
    },
    {
      "type": "Feature",
      "properties": {
        "@id": "way/334649006",
        "historic": "archaeological_site",
        "name": "Антигона",
        "@geometry": "center"
      },
      "geometry": {
        "type": "Point",
        "coordinates": [
          22.1002903,
          41.503403
        ]
      },
      "id": "way/334649006"
    },
    {
      "type": "Feature",
      "properties": {
        "@id": "way/338675543",
        "area": "yes",
        "highway": "pedestrian",
        "historic": "memorial",
        "name": "Могила на непобедените",
        "name:en": "Mound of the undefeated",
        "tourism": "attraction",
        "wikidata": "Q3400797",
        "@geometry": "center"
      },
      "geometry": {
        "type": "Point",
        "coordinates": [
          21.5545468,
          41.3342029
        ]
      },
      "id": "way/338675543"
    },
    {
      "type": "Feature",
      "properties": {
        "@id": "way/356302520",
        "addr:city": "Старо Нагоричане",
        "amenity": "place_of_worship",
        "denomination": "orthodox",
        "historic": "church",
        "landuse": "religious",
        "name": "Св. Великомаченик Георгиј",
        "name:en": "Church of St. George",
        "religion": "christian",
        "tourism": "attraction",
        "wikipedia": "mk:Црква „Св. Великомаченик Георгиј“ - Старо Нагоричане",
        "@geometry": "center"
      },
      "geometry": {
        "type": "Point",
        "coordinates": [
          21.8279922,
          42.1981803
        ]
      },
      "id": "way/356302520"
    },
    {
      "type": "Feature",
      "properties": {
        "@id": "node/367853384",
        "artist": "Кристина Пауновска",
        "cost": "272.792 euro",
        "description": "Историско значење Питу Гули (1865 - 12 август 1903) — македонски револуционер со влашко потекло, учесник во македонското револуционерно движење, член и војвода на Македонската револуционерна организација.\nСовременици сведочат дека Питу Гули имал завршено",
        "historic": "monument",
        "investitor": "Општина Центар",
        "learnica": "Уметничка леарница Јеремиќ",
        "name": "Питу Гули",
        "start_date": "2012"
      },
      "geometry": {
        "type": "Point",
        "coordinates": [
          21.433319,
          41.9936737
        ]
      },
      "id": "node/367853384"
    },
    {
      "type": "Feature",
      "properties": {
        "@id": "node/367860262",
        "historic": "monument",
        "name": "Гоце Делчев"
      },
      "geometry": {
        "type": "Point",
        "coordinates": [
          21.4233737,
          42.0032812
        ]
      },
      "id": "node/367860262"
    },
    {
      "type": "Feature",
      "properties": {
        "@id": "node/369750026",
        "access": "no",
        "barrier": "entrance",
        "historic": "city_gate",
        "name": "Влез на Скопското кале",
        "name:en": "Skopje Fortress Gate"
      },
      "geometry": {
        "type": "Point",
        "coordinates": [
          21.4338778,
          42.0008716
        ]
      },
      "id": "node/369750026"
    },
    {
      "type": "Feature",
      "properties": {
        "@id": "node/373488269",
        "historic": "ruins",
        "name": "Тетовско Кале",
        "name:en": "Tetovo Fortress",
        "wikidata": "Q12910952",
        "wikipedia": "mk:Тетовско кале"
      },
      "geometry": {
        "type": "Point",
        "coordinates": [
          20.960153,
          42.0195738
        ]
      },
      "id": "node/373488269"
    },
    {
      "type": "Feature",
      "properties": {
        "@id": "node/382635381",
        "historic": "monument",
        "name": "Костурница",
        "name:en": "Kosturnica",
        "tourism": "attraction"
      },
      "geometry": {
        "type": "Point",
        "coordinates": [
          22.0228463,
          41.4325212
        ]
      },
      "id": "node/382635381"
    },
    {
      "type": "Feature",
      "properties": {
        "@id": "node/382646189",
        "historic": "monument"
      },
      "geometry": {
        "type": "Point",
        "coordinates": [
          22.0195297,
          41.4336787
        ]
      },
      "id": "node/382646189"
    },
    {
      "type": "Feature",
      "properties": {
        "@id": "node/390757432",
        "historic": "ruins"
      },
      "geometry": {
        "type": "Point",
        "coordinates": [
          20.7912433,
          41.1151632
        ]
      },
      "id": "node/390757432"
    },
    {
      "type": "Feature",
      "properties": {
        "@id": "node/390757439",
        "historic": "archaeological_site",
        "name": "Лихнид",
        "name:la": "Lychnidos",
        "wikipedia": "it:Lychnidos"
      },
      "geometry": {
        "type": "Point",
        "coordinates": [
          20.7914836,
          41.1155576
        ]
      },
      "id": "node/390757439"
    },
    {
      "type": "Feature",
      "properties": {
        "@id": "way/402846960",
        "historic": "ruins",
        "@geometry": "center"
      },
      "geometry": {
        "type": "Point",
        "coordinates": [
          20.8712095,
          41.6511392
        ]
      },
      "id": "way/402846960"
    },
    {
      "type": "Feature",
      "properties": {
        "@id": "way/402846961",
        "historic": "ruins",
        "@geometry": "center"
      },
      "geometry": {
        "type": "Point",
        "coordinates": [
          20.8692837,
          41.6506833
        ]
      },
      "id": "way/402846961"
    },
    {
      "type": "Feature",
      "properties": {
        "@id": "way/403342892",
        "historic": "ruins",
        "@geometry": "center"
      },
      "geometry": {
        "type": "Point",
        "coordinates": [
          21.6756788,
          41.8203515
        ]
      },
      "id": "way/403342892"
    },
    {
      "type": "Feature",
      "properties": {
        "@id": "way/403655101",
        "historic": "ruins",
        "@geometry": "center"
      },
      "geometry": {
        "type": "Point",
        "coordinates": [
          21.6528674,
          41.8092184
        ]
      },
      "id": "way/403655101"
    },
    {
      "type": "Feature",
      "properties": {
        "@id": "way/403655102",
        "historic": "ruins",
        "@geometry": "center"
      },
      "geometry": {
        "type": "Point",
        "coordinates": [
          21.6530171,
          41.8090459
        ]
      },
      "id": "way/403655102"
    },
    {
      "type": "Feature",
      "properties": {
        "@id": "way/403655113",
        "historic": "ruins",
        "@geometry": "center"
      },
      "geometry": {
        "type": "Point",
        "coordinates": [
          21.6533338,
          41.8087833
        ]
      },
      "id": "way/403655113"
    },
    {
      "type": "Feature",
      "properties": {
        "@id": "node/410115784",
        "historic": "monument",
        "int_name": "Mečkin Kamen",
        "name": "Мечкин Камен",
        "name:en": "Mechkin Kamen",
        "tourism": "attraction"
      },
      "geometry": {
        "type": "Point",
        "coordinates": [
          21.257898,
          41.3377228
        ]
      },
      "id": "node/410115784"
    },
    {
      "type": "Feature",
      "properties": {
        "@id": "node/410115785",
        "historic": "monument",
        "int_name": "Sliva",
        "name": "Слива"
      },
      "geometry": {
        "type": "Point",
        "coordinates": [
          21.2273776,
          41.3880768
        ]
      },
      "id": "node/410115785"
    },
    {
      "type": "Feature",
      "properties": {
        "@id": "way/411079115",
        "bridge": "yes",
        "bridge:structure": "arch",
        "foot": "yes",
        "highway": "pedestrian",
        "historic": "monument",
        "layer": "1",
        "lit": "yes",
        "name": "Камен мост",
        "name:bg": "Камен мост",
        "name:de": "Steinbrücke",
        "name:en": "Stone Bridge",
        "name:es": "Puente de Piedra",
        "name:fr": "Pont de pierre",
        "name:pl": "Kamienny Most",
        "name:sq": "Ura e Gurit",
        "name:sr": "Душанов мост",
        "name:tr": "Taşköprü",
        "name:uk": "Кам'яний міст",
        "smoothness": "intermediate",
        "surface": "paving_stones",
        "@geometry": "center"
      },
      "geometry": {
        "type": "Point",
        "coordinates": [
          21.4332264,
          41.9971028
        ]
      },
      "id": "way/411079115"
    },
    {
      "type": "Feature",
      "properties": {
        "@id": "way/411111578",
        "building": "yes",
        "building:material": "stone",
        "historic": "yes",
        "man_made": "tower",
        "tower:type": "defensive",
        "@geometry": "center"
      },
      "geometry": {
        "type": "Point",
        "coordinates": [
          21.4328427,
          41.9999323
        ]
      },
      "id": "way/411111578"
    },
    {
      "type": "Feature",
      "properties": {
        "@id": "way/411111584",
        "building": "yes",
        "building:material": "stone",
        "historic": "yes",
        "man_made": "tower",
        "tower:type": "defensive",
        "@geometry": "center"
      },
      "geometry": {
        "type": "Point",
        "coordinates": [
          21.4323429,
          42.0004451
        ]
      },
      "id": "way/411111584"
    },
    {
      "type": "Feature",
      "properties": {
        "@id": "way/411111604",
        "building": "yes",
        "building:material": "stone",
        "historic": "yes",
        "man_made": "tower",
        "tower:type": "defensive",
        "@geometry": "center"
      },
      "geometry": {
        "type": "Point",
        "coordinates": [
          21.4330595,
          41.9999071
        ]
      },
      "id": "way/411111604"
    },
    {
      "type": "Feature",
      "properties": {
        "@id": "way/411111605",
        "building": "yes",
        "building:material": "stone",
        "historic": "yes",
        "man_made": "tower",
        "tower:type": "defensive",
        "@geometry": "center"
      },
      "geometry": {
        "type": "Point",
        "coordinates": [
          21.4335147,
          41.9998205
        ]
      },
      "id": "way/411111605"
    },
    {
      "type": "Feature",
      "properties": {
        "@id": "way/411111616",
        "building": "yes",
        "building:material": "stone",
        "historic": "yes",
        "man_made": "tower",
        "tower:type": "defensive",
        "@geometry": "center"
      },
      "geometry": {
        "type": "Point",
        "coordinates": [
          21.4332051,
          41.9998874
        ]
      },
      "id": "way/411111616"
    },
    {
      "type": "Feature",
      "properties": {
        "@id": "way/414261893",
        "access": "yes",
        "archaeological_site": "fortification",
        "barrier": "city_wall",
        "historic": "archaeological_site",
        "historic:civilization": "medieval",
        "name": "Трескавец",
        "name:en": "Treskavec",
        "@geometry": "center"
      },
      "geometry": {
        "type": "Point",
        "coordinates": [
          21.5376682,
          41.4053138
        ]
      },
      "id": "way/414261893"
    },
    {
      "type": "Feature",
      "properties": {
        "@id": "node/414714609",
        "ele": "368.7886963",
        "historic": "monument"
      },
      "geometry": {
        "type": "Point",
        "coordinates": [
          21.6904592,
          41.5113691
        ]
      },
      "id": "node/414714609"
    },
    {
      "type": "Feature",
      "properties": {
        "@id": "way/417361056",
        "architect:wikidata": "Q700592",
        "historic": "memorial",
        "memorial": "war_memorial",
        "name": "Меморијален комплекс на паднатите борци на Револуцијата",
        "wikidata": "Q12286474",
        "wikipedia": "mk:Меморијален комплекс на паднатите борци на револуцијата",
        "@geometry": "center"
      },
      "geometry": {
        "type": "Point",
        "coordinates": [
          22.1875199,
          41.7383122
        ]
      },
      "id": "way/417361056"
    },
    {
      "type": "Feature",
      "properties": {
        "@id": "way/417361065",
        "access": "yes",
        "historic": "ruins",
        "historic:civilization": "middle-ages",
        "name": "Исар",
        "wikidata": "Q20570361",
        "wikipedia": "mk:Штипска тврдина",
        "@geometry": "center"
      },
      "geometry": {
        "type": "Point",
        "coordinates": [
          22.1867683,
          41.7387626
        ]
      },
      "id": "way/417361065"
    },
    {
      "type": "Feature",
      "properties": {
        "@id": "way/422287440",
        "barrier": "wall",
        "historic": "citywalls",
        "@geometry": "center"
      },
      "geometry": {
        "type": "Point",
        "coordinates": [
          21.9735964,
          41.5530794
        ]
      },
      "id": "way/422287440"
    },
    {
      "type": "Feature",
      "properties": {
        "@id": "way/424490169",
        "historic": "archaeological_site",
        "historic:civilization": "ancient_roman",
        "historic:period": "principate",
        "int_name": "Skupi",
        "name": "Скупи",
        "name:en": "Scupi",
        "wikidata": "Q149203",
        "wikimedia_commons": "Category:Scupi",
        "wikipedia": "mk:Скупи",
        "@geometry": "center"
      },
      "geometry": {
        "type": "Point",
        "coordinates": [
          21.3882022,
          42.0204316
        ]
      },
      "id": "way/424490169"
    },
    {
      "type": "Feature",
      "properties": {
        "@id": "node/444334991",
        "historic": "monument",
        "int_name": "Spomenik na slobodata",
        "name": "Споменик на слободата",
        "name:en": "Monument of Freedom",
        "tourism": "attraction",
        "wikidata": "Q3402642",
        "wikipedia": "mk:Споменик на слободата (Кочани)"
      },
      "geometry": {
        "type": "Point",
        "coordinates": [
          22.4069917,
          41.9188903
        ]
      },
      "id": "node/444334991"
    },
    {
      "type": "Feature",
      "properties": {
        "@id": "way/445947375",
        "historic": "monument",
        "name": "Гоце Делчев",
        "@geometry": "center"
      },
      "geometry": {
        "type": "Point",
        "coordinates": [
          22.1821051,
          41.7363105
        ]
      },
      "id": "way/445947375"
    },
    {
      "type": "Feature",
      "properties": {
        "@id": "way/453048240",
        "amenity": "place_of_worship",
        "building": "yes",
        "historic": "monastery",
        "name": "св. Тројица",
        "name:en": "Sv. Trojitca",
        "religion": "christian",
        "@geometry": "center"
      },
      "geometry": {
        "type": "Point",
        "coordinates": [
          21.3785429,
          42.1027654
        ]
      },
      "id": "way/453048240"
    },
    {
      "type": "Feature",
      "properties": {
        "@id": "way/470931894",
        "building": "yes",
        "historic": "ruins",
        "@geometry": "center"
      },
      "geometry": {
        "type": "Point",
        "coordinates": [
          21.4443478,
          41.9828254
        ]
      },
      "id": "way/470931894"
    },
    {
      "type": "Feature",
      "properties": {
        "@id": "way/470931895",
        "building": "yes",
        "historic": "ruins",
        "@geometry": "center"
      },
      "geometry": {
        "type": "Point",
        "coordinates": [
          21.4445024,
          41.9827359
        ]
      },
      "id": "way/470931895"
    },
    {
      "type": "Feature",
      "properties": {
        "@id": "node/473902990",
        "historic": "monument",
        "name": "WWII Battle - 17th Macedonian Brigade ws Bulgarian army",
        "name:mk": "2ра Светска војна - Битка помеѓу 17та Македонска Ударна Бригада и Бугарската војска"
      },
      "geometry": {
        "type": "Point",
        "coordinates": [
          22.3507979,
          42.2916094
        ]
      },
      "id": "node/473902990"
    },
    {
      "type": "Feature",
      "properties": {
        "@id": "way/474873958",
        "alt_name": "Тврдина Кале",
        "alt_name:mk": "Скопска тврдина",
        "alt_name:sr": "Скопска тврђава",
        "area": "yes",
        "historic": "castle",
        "int_name": "Skopsko Kale",
        "name": "Скопско кале",
        "name:en": "Skopje Fortress",
        "name:ru": "Крепость Скопье",
        "name:sq": "Kalaja e Shkupit",
        "name:sr": "Скопско кале",
        "name:tr": "Üsküp Kalesi",
        "opening_hours": "07:00-19:00",
        "ruins": "yes",
        "tourism": "attraction",
        "wheelchair": "limited",
        "wikidata": "Q1262367",
        "wikimedia_commons": "Category:Skopje Fortress",
        "wikipedia": "mk:Скопско Kале",
        "@geometry": "center"
      },
      "geometry": {
        "type": "Point",
        "coordinates": [
          21.4335309,
          42.0007999
        ]
      },
      "id": "way/474873958"
    },
    {
      "type": "Feature",
      "properties": {
        "@id": "way/477021071",
        "addr:housenumber": "58-a",
        "addr:postcode": "1000",
        "addr:street": "Менделеева",
        "building": "yes",
        "historic": "castle",
        "name": "Штакле",
        "name:en": "Castle Stakle",
        "name:mk": "Штакле",
        "opening_hours": "24/7",
        "@geometry": "center"
      },
      "geometry": {
        "type": "Point",
        "coordinates": [
          21.4476483,
          42.0055287
        ]
      },
      "id": "way/477021071"
    },
    {
      "type": "Feature",
      "properties": {
        "@id": "node/495558836",
        "historic": "monument",
        "int_name": "Spomenik na Revolucijata",
        "name": "Споменик на Револуцијата",
        "name:en": "Monument of the Revolution"
      },
      "geometry": {
        "type": "Point",
        "coordinates": [
          20.679835,
          41.1776616
        ]
      },
      "id": "node/495558836"
    },
    {
      "type": "Feature",
      "properties": {
        "@id": "way/502848605",
        "building": "yes",
        "historic": "ruins",
        "int_name": "Great Basilica",
        "name": "Голема Базилика",
        "name:en": "Great Basilica",
        "name:fr": "Grande basilique",
        "@geometry": "center"
      },
      "geometry": {
        "type": "Point",
        "coordinates": [
          21.3424336,
          41.0110255
        ]
      },
      "id": "way/502848605"
    },
    {
      "type": "Feature",
      "properties": {
        "@id": "way/513644247",
        "historic": "monastery",
        "name": "Света Недела",
        "name:en": "Holy Sunday",
        "ruins": "yes",
        "@geometry": "center"
      },
      "geometry": {
        "type": "Point",
        "coordinates": [
          21.2915142,
          41.9497131
        ]
      },
      "id": "way/513644247"
    },
    {
      "type": "Feature",
      "properties": {
        "@id": "way/514513452",
        "historic": "archaeological_site",
        "name": "Билазора",
        "wikidata": "Q2929164",
        "wikipedia": "bg:Билазора",
        "@geometry": "center"
      },
      "geometry": {
        "type": "Point",
        "coordinates": [
          21.9124237,
          41.8471851
        ]
      },
      "id": "way/514513452"
    },
    {
      "type": "Feature",
      "properties": {
        "@id": "way/514513824",
        "historic": "archaeological_site",
        "@geometry": "center"
      },
      "geometry": {
        "type": "Point",
        "coordinates": [
          21.9117009,
          41.8466926
        ]
      },
      "id": "way/514513824"
    },
    {
      "type": "Feature",
      "properties": {
        "@id": "way/553070358",
        "historic": "monument",
        "name": "Колонада",
        "@geometry": "center"
      },
      "geometry": {
        "type": "Point",
        "coordinates": [
          21.4357375,
          41.9963896
        ]
      },
      "id": "way/553070358"
    },
    {
      "type": "Feature",
      "properties": {
        "@id": "way/573251504",
        "historic": "ruins",
        "@geometry": "center"
      },
      "geometry": {
        "type": "Point",
        "coordinates": [
          21.5609572,
          40.9721287
        ]
      },
      "id": "way/573251504"
    },
    {
      "type": "Feature",
      "properties": {
        "@id": "way/602908072",
        "barrier": "city_wall",
        "historic": "archaeological_site",
        "@geometry": "center"
      },
      "geometry": {
        "type": "Point",
        "coordinates": [
          22.2901045,
          41.7993982
        ]
      },
      "id": "way/602908072"
    },
    {
      "type": "Feature",
      "properties": {
        "@id": "way/602908073",
        "barrier": "city_wall",
        "historic": "archaeological_site",
        "@geometry": "center"
      },
      "geometry": {
        "type": "Point",
        "coordinates": [
          22.2891655,
          41.7996945
        ]
      },
      "id": "way/602908073"
    },
    {
      "type": "Feature",
      "properties": {
        "@id": "way/602908074",
        "barrier": "city_wall",
        "historic": "archaeological_site",
        "@geometry": "center"
      },
      "geometry": {
        "type": "Point",
        "coordinates": [
          22.2893177,
          41.7997693
        ]
      },
      "id": "way/602908074"
    },
    {
      "type": "Feature",
      "properties": {
        "@id": "way/603405553",
        "historic": "archaeological_site",
        "historic:civilization": "ancient_roman",
        "name": "Roman & Ottoman Bathouse",
        "@geometry": "center"
      },
      "geometry": {
        "type": "Point",
        "coordinates": [
          22.7538513,
          41.382463
        ]
      },
      "id": "way/603405553"
    },
    {
      "type": "Feature",
      "properties": {
        "@id": "way/603605134",
        "historic": "archaeological_site",
        "@geometry": "center"
      },
      "geometry": {
        "type": "Point",
        "coordinates": [
          22.8626175,
          41.7777081
        ]
      },
      "id": "way/603605134"
    },
    {
      "type": "Feature",
      "properties": {
        "@id": "way/603638574",
        "historic": "archaeological_site",
        "@geometry": "center"
      },
      "geometry": {
        "type": "Point",
        "coordinates": [
          22.4179578,
          41.8484457
        ]
      },
      "id": "way/603638574"
    },
    {
      "type": "Feature",
      "properties": {
        "@id": "way/625505115",
        "amenity": "cafe",
        "building": "yes",
        "building:levels": "1",
        "building:material": "masonry",
        "building:use": "foodservice",
        "cuisine": "ice_cream",
        "historic": "building",
        "internet_access": "wlan",
        "internet_access:fee": "no",
        "name": "Baptisterium",
        "outdoor_seating": "yes",
        "roof:shape": "pyramidal",
        "toilets": "yes",
        "@geometry": "center"
      },
      "geometry": {
        "type": "Point",
        "coordinates": [
          20.7913899,
          41.1121984
        ]
      },
      "id": "way/625505115"
    },
    {
      "type": "Feature",
      "properties": {
        "@id": "way/677981810",
        "historic": "archaeological_site",
        "name": "Geoglif Sv. Nikole",
        "@geometry": "center"
      },
      "geometry": {
        "type": "Point",
        "coordinates": [
          21.9566168,
          41.8291201
        ]
      },
      "id": "way/677981810"
    },
    {
      "type": "Feature",
      "properties": {
        "@id": "way/679215630",
        "access": "yes",
        "historic": "monument",
        "name": "Александар Македонски",
        "wikimedia_commons": "File:Споменикот на Александар Македонски во Штип.jpg",
        "@geometry": "center"
      },
      "geometry": {
        "type": "Point",
        "coordinates": [
          22.1940372,
          41.7372486
        ]
      },
      "id": "way/679215630"
    },
    {
      "type": "Feature",
      "properties": {
        "@id": "way/698993277",
        "historic": "archaeological_site",
        "name": "Bilazora - Water Reservoir",
        "@geometry": "center"
      },
      "geometry": {
        "type": "Point",
        "coordinates": [
          21.9099884,
          41.8497337
        ]
      },
      "id": "way/698993277"
    },
    {
      "type": "Feature",
      "properties": {
        "@id": "way/704079412",
        "historic": "monument",
        "name": "Велешки Гемиџија",
        "@geometry": "center"
      },
      "geometry": {
        "type": "Point",
        "coordinates": [
          21.7834205,
          41.7161516
        ]
      },
      "id": "way/704079412"
    },
    {
      "type": "Feature",
      "properties": {
        "@id": "way/722996642",
        "barrier": "city_wall",
        "historic": "citywalls",
        "@geometry": "center"
      },
      "geometry": {
        "type": "Point",
        "coordinates": [
          20.7917866,
          41.1157166
        ]
      },
      "id": "way/722996642"
    },
    {
      "type": "Feature",
      "properties": {
        "@id": "way/722996644",
        "barrier": "city_wall",
        "historic": "citywalls",
        "@geometry": "center"
      },
      "geometry": {
        "type": "Point",
        "coordinates": [
          20.7907204,
          41.1147233
        ]
      },
      "id": "way/722996644"
    },
    {
      "type": "Feature",
      "properties": {
        "@id": "way/722996645",
        "barrier": "city_wall",
        "historic": "citywalls",
        "@geometry": "center"
      },
      "geometry": {
        "type": "Point",
        "coordinates": [
          20.7910241,
          41.1146455
        ]
      },
      "id": "way/722996645"
    },
    {
      "type": "Feature",
      "properties": {
        "@id": "way/722996646",
        "barrier": "city_wall",
        "historic": "citywalls",
        "@geometry": "center"
      },
      "geometry": {
        "type": "Point",
        "coordinates": [
          20.7914392,
          41.1147847
        ]
      },
      "id": "way/722996646"
    },
    {
      "type": "Feature",
      "properties": {
        "@id": "way/722996647",
        "barrier": "city_wall",
        "historic": "citywalls",
        "@geometry": "center"
      },
      "geometry": {
        "type": "Point",
        "coordinates": [
          20.7916233,
          41.1150148
        ]
      },
      "id": "way/722996647"
    },
    {
      "type": "Feature",
      "properties": {
        "@id": "way/722996648",
        "barrier": "city_wall",
        "historic": "citywalls",
        "@geometry": "center"
      },
      "geometry": {
        "type": "Point",
        "coordinates": [
          20.7916507,
          41.1153341
        ]
      },
      "id": "way/722996648"
    },
    {
      "type": "Feature",
      "properties": {
        "@id": "way/722996651",
        "barrier": "city_wall",
        "historic": "citywalls",
        "@geometry": "center"
      },
      "geometry": {
        "type": "Point",
        "coordinates": [
          20.7912582,
          41.1146791
        ]
      },
      "id": "way/722996651"
    },
    {
      "type": "Feature",
      "properties": {
        "@id": "way/722996652",
        "historic": "citywalls",
        "@geometry": "center"
      },
      "geometry": {
        "type": "Point",
        "coordinates": [
          20.7912799,
          41.1146411
        ]
      },
      "id": "way/722996652"
    },
    {
      "type": "Feature",
      "properties": {
        "@id": "way/807724824",
        "historic": "archaeological_site",
        "name": "Црквиште",
        "@geometry": "center"
      },
      "geometry": {
        "type": "Point",
        "coordinates": [
          21.1838994,
          42.156669
        ]
      },
      "id": "way/807724824"
    },
    {
      "type": "Feature",
      "properties": {
        "@id": "way/808916278",
        "boundary": "protected_area",
        "date": "2001-08-08",
        "historic": "battlefield",
        "name": "Масакр кај Карпалак",
        "name:en": "Karpalak massacre",
        "wikipedia": "mk:Масакр кај Карпалак",
        "@geometry": "center"
      },
      "geometry": {
        "type": "Point",
        "coordinates": [
          21.1717901,
          41.9770017
        ]
      },
      "id": "way/808916278"
    },
    {
      "type": "Feature",
      "properties": {
        "@id": "way/816604533",
        "access": "permissive",
        "historic": "tomb",
        "tomb": "war_grave",
        "@geometry": "center"
      },
      "geometry": {
        "type": "Point",
        "coordinates": [
          21.5584422,
          41.3434486
        ]
      },
      "id": "way/816604533"
    },
    {
      "type": "Feature",
      "properties": {
        "@id": "way/821781063",
        "barrier": "fence",
        "historic": "archaeological_site",
        "name": "Гориче",
        "name:en": "Goriche",
        "wikidata": "Q20565635",
        "wikipedia": "mk:Гориче (Белче)",
        "@geometry": "center"
      },
      "geometry": {
        "type": "Point",
        "coordinates": [
          21.2008838,
          41.2380683
        ]
      },
      "id": "way/821781063"
    },
    {
      "type": "Feature",
      "properties": {
        "@id": "way/838638808",
        "historic": "memorial",
        "memorial": "war_memorial",
        "name": "Спомен плоча - Ѓурѓејца",
        "@geometry": "center"
      },
      "geometry": {
        "type": "Point",
        "coordinates": [
          20.9661158,
          41.4530879
        ]
      },
      "id": "way/838638808"
    },
    {
      "type": "Feature",
      "properties": {
        "@id": "way/838931012",
        "historic": "ruins",
        "@geometry": "center"
      },
      "geometry": {
        "type": "Point",
        "coordinates": [
          22.8545638,
          41.3391641
        ]
      },
      "id": "way/838931012"
    },
    {
      "type": "Feature",
      "properties": {
        "@id": "way/839150823",
        "historic": "memorial",
        "name": "Споменик на Народоослободителната борба",
        "@geometry": "center"
      },
      "geometry": {
        "type": "Point",
        "coordinates": [
          21.9388571,
          41.8647479
        ]
      },
      "id": "way/839150823"
    },
    {
      "type": "Feature",
      "properties": {
        "@id": "way/839150824",
        "historic": "monument",
        "name": "Споменик „Александар Серафимов“",
        "@geometry": "center"
      },
      "geometry": {
        "type": "Point",
        "coordinates": [
          21.9398177,
          41.8647238
        ]
      },
      "id": "way/839150824"
    },
    {
      "type": "Feature",
      "properties": {
        "@id": "way/858650998",
        "addr:city": "Прилеп",
        "addr:housenumber": "ББ",
        "addr:postcode": "7500",
        "addr:street": "Цар Самоил",
        "historic": "memorial",
        "leisure": "park",
        "memorial": "war_memorial",
        "name": "Могила на непобедените",
        "opening_hours": "24/7",
        "wikidata": "Q3400797",
        "wikipedia": "mk:Могила на непобедените",
        "@geometry": "center"
      },
      "geometry": {
        "type": "Point",
        "coordinates": [
          21.5537714,
          41.3351271
        ]
      },
      "id": "way/858650998"
    },
    {
      "type": "Feature",
      "properties": {
        "@id": "way/865119240",
        "historic": "memorial",
        "@geometry": "center"
      },
      "geometry": {
        "type": "Point",
        "coordinates": [
          21.5583728,
          41.3426379
        ]
      },
      "id": "way/865119240"
    },
    {
      "type": "Feature",
      "properties": {
        "@id": "way/875859703",
        "access": "yes",
        "archaeological_site": "fortification",
        "historic": "archaeological_site",
        "historic:civilization": "ancient_roman",
        "name": "Кале",
        "name:en": "Kale",
        "wikidata": "Q23037874",
        "wikipedia": "mk:Кале (Зрзе)",
        "@geometry": "center"
      },
      "geometry": {
        "type": "Point",
        "coordinates": [
          21.342199,
          41.5229304
        ]
      },
      "id": "way/875859703"
    },
    {
      "type": "Feature",
      "properties": {
        "@id": "way/878965706",
        "historic": "ruins",
        "ruins": "building",
        "@geometry": "center"
      },
      "geometry": {
        "type": "Point",
        "coordinates": [
          21.6535882,
          41.3678984
        ]
      },
      "id": "way/878965706"
    },
    {
      "type": "Feature",
      "properties": {
        "@id": "way/888421002",
        "access": "yes",
        "historic": "archaeological_site",
        "historic:civilization": "early_christian",
        "name": "Archaeological site of Mancevci, Early Christian Basilica 5 AC",
        "religion": "christian",
        "@geometry": "center"
      },
      "geometry": {
        "type": "Point",
        "coordinates": [
          20.7934836,
          41.1128228
        ]
      },
      "id": "way/888421002"
    },
    {
      "type": "Feature",
      "properties": {
        "@id": "way/894563394",
        "building": "industrial",
        "historic": "ruins",
        "ruins": "building",
        "@geometry": "center"
      },
      "geometry": {
        "type": "Point",
        "coordinates": [
          21.2446884,
          41.3734306
        ]
      },
      "id": "way/894563394"
    },
    {
      "type": "Feature",
      "properties": {
        "@id": "way/894563395",
        "building": "industrial",
        "historic": "ruins",
        "ruins": "building",
        "@geometry": "center"
      },
      "geometry": {
        "type": "Point",
        "coordinates": [
          21.2449885,
          41.3729593
        ]
      },
      "id": "way/894563395"
    },
    {
      "type": "Feature",
      "properties": {
        "@id": "way/894563396",
        "building": "industrial",
        "historic": "ruins",
        "ruins": "building",
        "@geometry": "center"
      },
      "geometry": {
        "type": "Point",
        "coordinates": [
          21.2453484,
          41.3731235
        ]
      },
      "id": "way/894563396"
    },
    {
      "type": "Feature",
      "properties": {
        "@id": "way/896167338",
        "historic": "ruins",
        "ruins": "building",
        "@geometry": "center"
      },
      "geometry": {
        "type": "Point",
        "coordinates": [
          21.2450055,
          41.3737968
        ]
      },
      "id": "way/896167338"
    },
    {
      "type": "Feature",
      "properties": {
        "@id": "way/899302511",
        "access": "yes",
        "archaeological_site": "fortification",
        "historic": "archaeological_site",
        "historic:civilization": "medieval",
        "name": "Пешта",
        "name:en": "Peshta",
        "@geometry": "center"
      },
      "geometry": {
        "type": "Point",
        "coordinates": [
          21.7443349,
          41.0881076
        ]
      },
      "id": "way/899302511"
    },
    {
      "type": "Feature",
      "properties": {
        "@id": "way/899461223",
        "access": "yes",
        "castle_type": "fortress",
        "historic": "castle",
        "name": "Марков Ѕид",
        "name:en": "Marko's Wall",
        "@geometry": "center"
      },
      "geometry": {
        "type": "Point",
        "coordinates": [
          21.5896205,
          41.29937
        ]
      },
      "id": "way/899461223"
    },
    {
      "type": "Feature",
      "properties": {
        "@id": "way/899465453",
        "access": "permissive",
        "amenity": "monastery",
        "barrier": "wall",
        "denomination": "orthodox",
        "historic": "archaeological_site",
        "historic:civilization": "medieval",
        "name": "Мариовски Манастир",
        "name:en": "Monastery of Mariovo",
        "name:mk": "Мариовски Манастир",
        "religion": "christian",
        "wikidata": "Q97232594",
        "wikipedia": "mk:Манастир Св. Никола (Манастир)",
        "@geometry": "center"
      },
      "geometry": {
        "type": "Point",
        "coordinates": [
          21.7263832,
          41.165019
        ]
      },
      "id": "way/899465453"
    },
    {
      "type": "Feature",
      "properties": {
        "@id": "way/899472741",
        "archaeological_site": "settlement",
        "historic": "archaeological_site",
        "historic:civilization": "ancient_macedonian;medieval",
        "name": "Градот / Маркови Кули",
        "name:en": "Gradot / Markovi Kuli",
        "wikidata": "Q98793101",
        "wikipedia": "mk:Градок - Маркови Кули",
        "@geometry": "center"
      },
      "geometry": {
        "type": "Point",
        "coordinates": [
          21.7183713,
          41.2061627
        ]
      },
      "id": "way/899472741"
    },
    {
      "type": "Feature",
      "properties": {
        "@id": "way/899479869",
        "archaeological_site": "fortification",
        "historic": "archaeological_site",
        "name": "Градиште",
        "name:en": "Gradishte",
        "@geometry": "center"
      },
      "geometry": {
        "type": "Point",
        "coordinates": [
          21.6443788,
          41.204909
        ]
      },
      "id": "way/899479869"
    },
    {
      "type": "Feature",
      "properties": {
        "@id": "way/899479870",
        "archaeological_site": "fortification",
        "historic": "archaeological_site",
        "name": "Бабо",
        "name:en": "Babo",
        "@geometry": "center"
      },
      "geometry": {
        "type": "Point",
        "coordinates": [
          21.652119,
          41.1967792
        ]
      },
      "id": "way/899479870"
    },
    {
      "type": "Feature",
      "properties": {
        "@id": "way/899481750",
        "archaeological_site": "necropolis",
        "historic": "archaeological_site",
        "historic:civilization": "ancient_macedonian",
        "name": "Старо Бонче",
        "name:en": "Staro Bonche",
        "wikidata": "Q12910706",
        "wikipedia": "mk:Старо Бонче (археолошко наоѓалиште)",
        "@geometry": "center"
      },
      "geometry": {
        "type": "Point",
        "coordinates": [
          21.5883917,
          41.2066672
        ]
      },
      "id": "way/899481750"
    },
    {
      "type": "Feature",
      "properties": {
        "@id": "way/899481751",
        "access": "yes",
        "archaeological_site": "city",
        "historic": "archaeological_site",
        "historic:civilization": "ancient_roman",
        "name": "Пелагон",
        "name:en": "Pelagon",
        "wikidata": "Q12909483",
        "wikipedia": "mk:Пелагон (град)",
        "@geometry": "center"
      },
      "geometry": {
        "type": "Point",
        "coordinates": [
          21.6162431,
          41.207884
        ]
      },
      "id": "way/899481751"
    },
    {
      "type": "Feature",
      "properties": {
        "@id": "way/903328344",
        "access": "yes",
        "archaeological_site": "fortification",
        "historic": "archaeological_site",
        "historic:civilization": "medieval",
        "name": "Кула",
        "name:en": "Kula",
        "wikidata": "Q20566679",
        "wikipedia": "mk:Кула (Македонски Брод)",
        "@geometry": "center"
      },
      "geometry": {
        "type": "Point",
        "coordinates": [
          21.2735584,
          41.5070505
        ]
      },
      "id": "way/903328344"
    },
    {
      "type": "Feature",
      "properties": {
        "@id": "way/906807150",
        "amenity": "place_of_worship",
        "building": "yes",
        "denomination": "macedonian_orthodox",
        "historic": "tomb",
        "name": "Св. Петар",
        "name:en": "St. Peter",
        "name:mk": "Св. Петар",
        "religion": "christian",
        "@geometry": "center"
      },
      "geometry": {
        "type": "Point",
        "coordinates": [
          21.7860548,
          40.9306998
        ]
      },
      "id": "way/906807150"
    },
    {
      "type": "Feature",
      "properties": {
        "@id": "node/908273421",
        "artist_name": "Валентина Стефановска",
        "artwork_type": "statue",
        "historic": "monument",
        "int_name": "Voin na Konj",
        "layer": "2",
        "memorial": "statue",
        "name": "Споменик на Александар Македонски",
        "name:en": "Statue of Alexander the Great",
        "start_date": "08.09.2011",
        "tourism": "artwork",
        "wikidata": "Q3497603",
        "wikimedia_commons": "Category:Warrior on Horseback (Skopje)",
        "wikipedia": "mk:Воин на коњ (Скопје)"
      },
      "geometry": {
        "type": "Point",
        "coordinates": [
          21.4314474,
          41.9959035
        ]
      },
      "id": "node/908273421"
    },
    {
      "type": "Feature",
      "properties": {
        "@id": "way/981842022",
        "barrier": "fence",
        "historic": "tomb",
        "tomb": "tombstone",
        "@geometry": "center"
      },
      "geometry": {
        "type": "Point",
        "coordinates": [
          21.0278893,
          42.0667388
        ]
      },
      "id": "way/981842022"
    },
    {
      "type": "Feature",
      "properties": {
        "@id": "way/981848250",
        "archaeological_site": "fortification",
        "historic": "archaeological_site",
        "name": "Лешок",
        "name:en": "Leshok",
        "@geometry": "center"
      },
      "geometry": {
        "type": "Point",
        "coordinates": [
          21.0260841,
          42.0675908
        ]
      },
      "id": "way/981848250"
    },
    {
      "type": "Feature",
      "properties": {
        "@id": "way/1000063414",
        "building": "yes",
        "denomination": "orthodox",
        "historic": "wayside_chapel",
        "religion": "christian",
        "@geometry": "center"
      },
      "geometry": {
        "type": "Point",
        "coordinates": [
          20.913793,
          40.9387956
        ]
      },
      "id": "way/1000063414"
    },
    {
      "type": "Feature",
      "properties": {
        "@id": "way/1044325422",
        "historic": "monument",
        "name": "Споменин на Слободата",
        "name:en": "Freedom Monument",
        "@geometry": "center"
      },
      "geometry": {
        "type": "Point",
        "coordinates": [
          22.4069974,
          41.9189051
        ]
      },
      "id": "way/1044325422"
    },
    {
      "type": "Feature",
      "properties": {
        "@id": "way/1050278253",
        "historic": "archaeological_site",
        "name": "Девини Кули",
        "name:en": "Devini Kuli",
        "name:mk": "Девини Кули",
        "wikidata": "Q20566325",
        "wikipedia": "mk:Девини Кули",
        "@geometry": "center"
      },
      "geometry": {
        "type": "Point",
        "coordinates": [
          21.2374131,
          41.5417536
        ]
      },
      "id": "way/1050278253"
    },
    {
      "type": "Feature",
      "properties": {
        "@id": "way/1054098604",
        "historic": "archaeological_site",
        "name": "Св. Никола",
        "name:en": "St. Nicholas",
        "wikidata": "Q23037880",
        "wikipedia": "mk:Св. Никола (Зрзе)",
        "@geometry": "center"
      },
      "geometry": {
        "type": "Point",
        "coordinates": [
          21.3499992,
          41.5183903
        ]
      },
      "id": "way/1054098604"
    },
    {
      "type": "Feature",
      "properties": {
        "@id": "way/1054395740",
        "historic": "archaeological_site",
        "wikidata": "Q31361418",
        "wikipedia": "mk:Дрениче (Небрегово)",
        "@geometry": "center"
      },
      "geometry": {
        "type": "Point",
        "coordinates": [
          21.5671849,
          41.4505655
        ]
      },
      "id": "way/1054395740"
    },
    {
      "type": "Feature",
      "properties": {
        "@id": "way/1056658135",
        "access": "yes",
        "historic": "ruins",
        "ruins": "church",
        "@geometry": "center"
      },
      "geometry": {
        "type": "Point",
        "coordinates": [
          21.4340164,
          41.2235353
        ]
      },
      "id": "way/1056658135"
    },
    {
      "type": "Feature",
      "properties": {
        "@id": "way/1082325542",
        "historic": "monument",
        "@geometry": "center"
      },
      "geometry": {
        "type": "Point",
        "coordinates": [
          21.7832515,
          41.7164246
        ]
      },
      "id": "way/1082325542"
    },
    {
      "type": "Feature",
      "properties": {
        "@id": "way/1095945354",
        "historic": "ruins",
        "@geometry": "center"
      },
      "geometry": {
        "type": "Point",
        "coordinates": [
          21.5626726,
          40.9517354
        ]
      },
      "id": "way/1095945354"
    },
    {
      "type": "Feature",
      "properties": {
        "@id": "way/1095945355",
        "historic": "ruins",
        "@geometry": "center"
      },
      "geometry": {
        "type": "Point",
        "coordinates": [
          21.5628792,
          40.952058
        ]
      },
      "id": "way/1095945355"
    },
    {
      "type": "Feature",
      "properties": {
        "@id": "way/1095945356",
        "historic": "ruins",
        "@geometry": "center"
      },
      "geometry": {
        "type": "Point",
        "coordinates": [
          21.5619639,
          40.9525266
        ]
      },
      "id": "way/1095945356"
    },
    {
      "type": "Feature",
      "properties": {
        "@id": "way/1095945357",
        "historic": "ruins",
        "@geometry": "center"
      },
      "geometry": {
        "type": "Point",
        "coordinates": [
          21.56545,
          40.9529335
        ]
      },
      "id": "way/1095945357"
    },
    {
      "type": "Feature",
      "properties": {
        "@id": "way/1095945377",
        "historic": "ruins",
        "@geometry": "center"
      },
      "geometry": {
        "type": "Point",
        "coordinates": [
          21.5704743,
          40.9509114
        ]
      },
      "id": "way/1095945377"
    },
    {
      "type": "Feature",
      "properties": {
        "@id": "way/1095945383",
        "historic": "ruins",
        "@geometry": "center"
      },
      "geometry": {
        "type": "Point",
        "coordinates": [
          21.5680846,
          40.9505772
        ]
      },
      "id": "way/1095945383"
    },
    {
      "type": "Feature",
      "properties": {
        "@id": "way/1095945384",
        "historic": "ruins",
        "@geometry": "center"
      },
      "geometry": {
        "type": "Point",
        "coordinates": [
          21.5676549,
          40.951273
        ]
      },
      "id": "way/1095945384"
    },
    {
      "type": "Feature",
      "properties": {
        "@id": "way/1095945385",
        "historic": "ruins",
        "@geometry": "center"
      },
      "geometry": {
        "type": "Point",
        "coordinates": [
          21.5665389,
          40.9511591
        ]
      },
      "id": "way/1095945385"
    },
    {
      "type": "Feature",
      "properties": {
        "@id": "way/1095945386",
        "historic": "ruins",
        "@geometry": "center"
      },
      "geometry": {
        "type": "Point",
        "coordinates": [
          21.56705,
          40.9513931
        ]
      },
      "id": "way/1095945386"
    },
    {
      "type": "Feature",
      "properties": {
        "@id": "way/1095950353",
        "historic": "ruins",
        "@geometry": "center"
      },
      "geometry": {
        "type": "Point",
        "coordinates": [
          21.566583,
          40.9515192
        ]
      },
      "id": "way/1095950353"
    },
    {
      "type": "Feature",
      "properties": {
        "@id": "way/1095950354",
        "historic": "ruins",
        "@geometry": "center"
      },
      "geometry": {
        "type": "Point",
        "coordinates": [
          21.5664104,
          40.951441
        ]
      },
      "id": "way/1095950354"
    },
    {
      "type": "Feature",
      "properties": {
        "@id": "way/1095950363",
        "historic": "ruins",
        "@geometry": "center"
      },
      "geometry": {
        "type": "Point",
        "coordinates": [
          21.5648912,
          40.951294
        ]
      },
      "id": "way/1095950363"
    },
    {
      "type": "Feature",
      "properties": {
        "@id": "way/1095950364",
        "historic": "ruins",
        "@geometry": "center"
      },
      "geometry": {
        "type": "Point",
        "coordinates": [
          21.5656978,
          40.9511557
        ]
      },
      "id": "way/1095950364"
    },
    {
      "type": "Feature",
      "properties": {
        "@id": "way/1095950365",
        "historic": "ruins",
        "@geometry": "center"
      },
      "geometry": {
        "type": "Point",
        "coordinates": [
          21.564037,
          40.9520897
        ]
      },
      "id": "way/1095950365"
    },
    {
      "type": "Feature",
      "properties": {
        "@id": "way/1095950366",
        "historic": "ruins",
        "@geometry": "center"
      },
      "geometry": {
        "type": "Point",
        "coordinates": [
          21.5639974,
          40.9522697
        ]
      },
      "id": "way/1095950366"
    },
    {
      "type": "Feature",
      "properties": {
        "@id": "way/1095950367",
        "historic": "ruins",
        "@geometry": "center"
      },
      "geometry": {
        "type": "Point",
        "coordinates": [
          21.5642044,
          40.9519064
        ]
      },
      "id": "way/1095950367"
    },
    {
      "type": "Feature",
      "properties": {
        "@id": "way/1095950373",
        "historic": "ruins",
        "@geometry": "center"
      },
      "geometry": {
        "type": "Point",
        "coordinates": [
          21.5647601,
          40.9514497
        ]
      },
      "id": "way/1095950373"
    },
    {
      "type": "Feature",
      "properties": {
        "@id": "way/1095950374",
        "historic": "ruins",
        "@geometry": "center"
      },
      "geometry": {
        "type": "Point",
        "coordinates": [
          21.5659176,
          40.9509538
        ]
      },
      "id": "way/1095950374"
    },
    {
      "type": "Feature",
      "properties": {
        "@id": "way/1095950375",
        "historic": "ruins",
        "@geometry": "center"
      },
      "geometry": {
        "type": "Point",
        "coordinates": [
          21.5653593,
          40.9500994
        ]
      },
      "id": "way/1095950375"
    },
    {
      "type": "Feature",
      "properties": {
        "@id": "way/1095950376",
        "historic": "ruins",
        "@geometry": "center"
      },
      "geometry": {
        "type": "Point",
        "coordinates": [
          21.5623059,
          40.9513458
        ]
      },
      "id": "way/1095950376"
    },
    {
      "type": "Feature",
      "properties": {
        "@id": "way/1095950377",
        "historic": "ruins",
        "@geometry": "center"
      },
      "geometry": {
        "type": "Point",
        "coordinates": [
          21.5625924,
          40.9512467
        ]
      },
      "id": "way/1095950377"
    },
    {
      "type": "Feature",
      "properties": {
        "@id": "way/1095950378",
        "historic": "ruins",
        "@geometry": "center"
      },
      "geometry": {
        "type": "Point",
        "coordinates": [
          21.5630602,
          40.9519328
        ]
      },
      "id": "way/1095950378"
    },
    {
      "type": "Feature",
      "properties": {
        "@id": "way/1095950387",
        "historic": "ruins",
        "@geometry": "center"
      },
      "geometry": {
        "type": "Point",
        "coordinates": [
          21.5636703,
          40.9524923
        ]
      },
      "id": "way/1095950387"
    },
    {
      "type": "Feature",
      "properties": {
        "@id": "way/1095950388",
        "historic": "ruins",
        "@geometry": "center"
      },
      "geometry": {
        "type": "Point",
        "coordinates": [
          21.565078,
          40.9515625
        ]
      },
      "id": "way/1095950388"
    },
    {
      "type": "Feature",
      "properties": {
        "@id": "way/1095950389",
        "historic": "ruins",
        "@geometry": "center"
      },
      "geometry": {
        "type": "Point",
        "coordinates": [
          21.565789,
          40.9503127
        ]
      },
      "id": "way/1095950389"
    },
    {
      "type": "Feature",
      "properties": {
        "@id": "way/1095950390",
        "historic": "ruins",
        "@geometry": "center"
      },
      "geometry": {
        "type": "Point",
        "coordinates": [
          21.567963,
          40.9513196
        ]
      },
      "id": "way/1095950390"
    },
    {
      "type": "Feature",
      "properties": {
        "@id": "way/1095950391",
        "historic": "ruins",
        "@geometry": "center"
      },
      "geometry": {
        "type": "Point",
        "coordinates": [
          21.5621224,
          40.9516711
        ]
      },
      "id": "way/1095950391"
    },
    {
      "type": "Feature",
      "properties": {
        "@id": "way/1095950392",
        "historic": "ruins",
        "@geometry": "center"
      },
      "geometry": {
        "type": "Point",
        "coordinates": [
          21.560847,
          40.9522045
        ]
      },
      "id": "way/1095950392"
    },
    {
      "type": "Feature",
      "properties": {
        "@id": "way/1095950393",
        "historic": "ruins",
        "@geometry": "center"
      },
      "geometry": {
        "type": "Point",
        "coordinates": [
          21.5607576,
          40.9524502
        ]
      },
      "id": "way/1095950393"
    },
    {
      "type": "Feature",
      "properties": {
        "@id": "way/1095950395",
        "historic": "ruins",
        "@geometry": "center"
      },
      "geometry": {
        "type": "Point",
        "coordinates": [
          21.5598902,
          40.953816
        ]
      },
      "id": "way/1095950395"
    },
    {
      "type": "Feature",
      "properties": {
        "@id": "way/1095950396",
        "historic": "ruins",
        "@geometry": "center"
      },
      "geometry": {
        "type": "Point",
        "coordinates": [
          21.5654501,
          40.9521616
        ]
      },
      "id": "way/1095950396"
    },
    {
      "type": "Feature",
      "properties": {
        "@id": "way/1095950397",
        "historic": "ruins",
        "@geometry": "center"
      },
      "geometry": {
        "type": "Point",
        "coordinates": [
          21.5663332,
          40.9512703
        ]
      },
      "id": "way/1095950397"
    },
    {
      "type": "Feature",
      "properties": {
        "@id": "way/1095950398",
        "historic": "ruins",
        "@geometry": "center"
      },
      "geometry": {
        "type": "Point",
        "coordinates": [
          21.5673108,
          40.9512962
        ]
      },
      "id": "way/1095950398"
    },
    {
      "type": "Feature",
      "properties": {
        "@id": "way/1095950399",
        "historic": "ruins",
        "@geometry": "center"
      },
      "geometry": {
        "type": "Point",
        "coordinates": [
          21.5677475,
          40.9504259
        ]
      },
      "id": "way/1095950399"
    },
    {
      "type": "Feature",
      "properties": {
        "@id": "way/1095950400",
        "historic": "ruins",
        "@geometry": "center"
      },
      "geometry": {
        "type": "Point",
        "coordinates": [
          21.5653369,
          40.9510186
        ]
      },
      "id": "way/1095950400"
    },
    {
      "type": "Feature",
      "properties": {
        "@id": "way/1095950401",
        "historic": "ruins",
        "@geometry": "center"
      },
      "geometry": {
        "type": "Point",
        "coordinates": [
          21.5671057,
          40.9534625
        ]
      },
      "id": "way/1095950401"
    },
    {
      "type": "Feature",
      "properties": {
        "@id": "way/1095950402",
        "historic": "ruins",
        "@geometry": "center"
      },
      "geometry": {
        "type": "Point",
        "coordinates": [
          21.5677115,
          40.9534844
        ]
      },
      "id": "way/1095950402"
    },
    {
      "type": "Feature",
      "properties": {
        "@id": "way/1095950403",
        "historic": "ruins",
        "@geometry": "center"
      },
      "geometry": {
        "type": "Point",
        "coordinates": [
          21.5638549,
          40.9514496
        ]
      },
      "id": "way/1095950403"
    },
    {
      "type": "Feature",
      "properties": {
        "@id": "way/1095950404",
        "historic": "ruins",
        "@geometry": "center"
      },
      "geometry": {
        "type": "Point",
        "coordinates": [
          21.5629093,
          40.9511241
        ]
      },
      "id": "way/1095950404"
    },
    {
      "type": "Feature",
      "properties": {
        "@id": "way/1095950405",
        "historic": "ruins",
        "@geometry": "center"
      },
      "geometry": {
        "type": "Point",
        "coordinates": [
          21.5634765,
          40.9522895
        ]
      },
      "id": "way/1095950405"
    },
    {
      "type": "Feature",
      "properties": {
        "@id": "way/1095950406",
        "historic": "ruins",
        "@geometry": "center"
      },
      "geometry": {
        "type": "Point",
        "coordinates": [
          21.5667338,
          40.9504632
        ]
      },
      "id": "way/1095950406"
    },
    {
      "type": "Feature",
      "properties": {
        "@id": "way/1095950407",
        "historic": "ruins",
        "@geometry": "center"
      },
      "geometry": {
        "type": "Point",
        "coordinates": [
          21.566213,
          40.9508387
        ]
      },
      "id": "way/1095950407"
    },
    {
      "type": "Feature",
      "properties": {
        "@id": "way/1095950408",
        "historic": "ruins",
        "@geometry": "center"
      },
      "geometry": {
        "type": "Point",
        "coordinates": [
          21.5674969,
          40.9514754
        ]
      },
      "id": "way/1095950408"
    },
    {
      "type": "Feature",
      "properties": {
        "@id": "way/1095950409",
        "historic": "ruins",
        "@geometry": "center"
      },
      "geometry": {
        "type": "Point",
        "coordinates": [
          21.5672021,
          40.9514199
        ]
      },
      "id": "way/1095950409"
    },
    {
      "type": "Feature",
      "properties": {
        "@id": "way/1095950410",
        "historic": "ruins",
        "@geometry": "center"
      },
      "geometry": {
        "type": "Point",
        "coordinates": [
          21.5655233,
          40.9510094
        ]
      },
      "id": "way/1095950410"
    },
    {
      "type": "Feature",
      "properties": {
        "@id": "way/1095950411",
        "historic": "ruins",
        "@geometry": "center"
      },
      "geometry": {
        "type": "Point",
        "coordinates": [
          21.5651945,
          40.9507122
        ]
      },
      "id": "way/1095950411"
    },
    {
      "type": "Feature",
      "properties": {
        "@id": "way/1095983365",
        "historic": "ruins",
        "@geometry": "center"
      },
      "geometry": {
        "type": "Point",
        "coordinates": [
          21.5597547,
          40.9431689
        ]
      },
      "id": "way/1095983365"
    },
    {
      "type": "Feature",
      "properties": {
        "@id": "way/1096045450",
        "historic": "ruins",
        "@geometry": "center"
      },
      "geometry": {
        "type": "Point",
        "coordinates": [
          21.560812,
          40.9721776
        ]
      },
      "id": "way/1096045450"
    },
    {
      "type": "Feature",
      "properties": {
        "@id": "way/1096045451",
        "historic": "ruins",
        "@geometry": "center"
      },
      "geometry": {
        "type": "Point",
        "coordinates": [
          21.5604072,
          40.9723453
        ]
      },
      "id": "way/1096045451"
    },
    {
      "type": "Feature",
      "properties": {
        "@id": "way/1096045452",
        "historic": "ruins",
        "@geometry": "center"
      },
      "geometry": {
        "type": "Point",
        "coordinates": [
          21.560607,
          40.9723843
        ]
      },
      "id": "way/1096045452"
    },
    {
      "type": "Feature",
      "properties": {
        "@id": "way/1096045453",
        "historic": "ruins",
        "@geometry": "center"
      },
      "geometry": {
        "type": "Point",
        "coordinates": [
          21.560509,
          40.9720601
        ]
      },
      "id": "way/1096045453"
    },
    {
      "type": "Feature",
      "properties": {
        "@id": "way/1096045455",
        "historic": "ruins",
        "@geometry": "center"
      },